[
  {
    "latitude": 0.920051,
    "longitude": 104.44236,
    "title": "BANK SAMPAH REMAJA MANDIRI",
    "description": "Kab/Kota: Kota Tanjungpinang\nKecamatan: Tanjung Pinang Barat\nKelurahan: Tanjung Pinang Barat\nAlamat: KELURAHAN TPI BARAT"
  },
  {
    "latitude": 0.920874,
    "longitude": 104.462608,
    "title": "Bank Sampah Amad Potong Lembu",
    "description": "Kab/Kota: Kota Tanjungpinang\nKecamatan: Tanjung Pinang Barat\nKelurahan: Kemboja\nAlamat: potong lembu"
  },
  {
    "latitude": 0.919459,
    "longitude": 104.470703,
    "title": "Bank Sampah Teladan Bergerak",
    "description": "Kab/Kota: Kota Tanjungpinang\nKecamatan: Tanjung Pinang Barat\nKelurahan: Kemboja\nAlamat: Kampung Teladan RT 002 RW 010"
  },
  {
    "latitude": 0.907769,
    "longitude": 104.453964,
    "title": "Bank Sampah Unit Sejati",
    "description": "Bank Sampah Unit Sejati\nKab/Kota: Kota Tanjungpinang\nKecamatan: Tanjung Pinang Barat\nKelurahan: Kampung Baru\nAlamat: Jl. Cempedak Gg. 2 RT.002 RW.02"
  },
  {
    "latitude": 0.912297,
    "longitude": 104.466972,
    "title": "Bank Sampah Unit Kita Maju Bersama",
    "description": "Kab/Kota: Kota Tanjungpinang\nKecamatan: Tanjung Pinang Barat\nKelurahan: Bukit Cermin\nAlamat: Jl. Anggrek RW 06"
  },
  {
    "latitude": 0.911295,
    "longitude": 104.481094,
    "title": "Bank Sampah Unit Kuantan Bersih",
    "description": "Kab/Kota: Kota Tanjungpinang\nKecamatan: Tanjung Pinang Timur\nKelurahan: Melayu Kota Piring\nAlamat: Putri Ledang V"
  },
  {
    "latitude": 0.920842,
    "longitude": 104.492294,
    "title": "BANK SAMPAH WONOSARI ASRI",
    "description": "Kab/Kota: Kota Tanjungpinang\nKecamatan: Tanjung Pinang Timur\nKelurahan: Melayu Kota Piring\nAlamat: PUSKESMAS KM.7 RT.03/RW.4"
  },
  {
    "latitude": 0.913521,
    "longitude": 104.486397,
    "title": "BANK SAMPAH KEMBAR MANDIRI ",
    "description": "Kab/Kota: Kota Tanjungpinang\nKecamatan: Tanjung Pinang Timur\nKelurahan: Melayu Kota Piring\nAlamat: KAMPUNG WONOSARI RT.002 RW.4"
  },
  {
    "latitude": 0.920051,
    "longitude": 104.44236,
    "title": "BANK SAMPAH REMAJA MANDIRI",
    "description": "Kab/Kota: Kota Tanjungpinang\nKecamatan: Tanjung Pinang Barat\nKelurahan: Tanjung Pinang Barat\nAlamat: KELURAHAN TPI BARAT"
  },
  {
    "latitude": 0.920874,
    "longitude": 104.462608,
    "title": "Bank Sampah Amad Potong Lembu",
    "description": "Kab/Kota: Kota Tanjungpinang\nKecamatan: Tanjung Pinang Barat\nKelurahan: Kemboja\nAlamat: potong lembu"
  },
  {
    "latitude": 0.919459,
    "longitude": 104.470703,
    "title": "Bank Sampah Teladan Bergerak",
    "description": "Kab/Kota: Kota Tanjungpinang\nKecamatan: Tanjung Pinang Barat\nKelurahan: Kemboja\nAlamat: Kampung Teladan RT 002 RW 010"
  },
  {
    "latitude": 0.907769,
    "longitude": 104.453964,
    "title": "Bank Sampah Unit Sejati",
    "description": "Bank Sampah Unit Sejati\nKab/Kota: Kota Tanjungpinang\nKecamatan: Tanjung Pinang Barat\nKelurahan: Kampung Baru\nAlamat: Jl. Cempedak Gg. 2 RT.002 RW.02"
  },
  {
    "latitude": 0.912297,
    "longitude": 104.466972,
    "title": "Bank Sampah Unit Kita Maju Bersama",
    "description": "Kab/Kota: Kota Tanjungpinang\nKecamatan: Tanjung Pinang Barat\nKelurahan: Bukit Cermin\nAlamat: Jl. Anggrek RW 06"
  },
  {
    "latitude": 0.911295,
    "longitude": 104.481094,
    "title": "Bank Sampah Unit Kuantan Bersih",
    "description": "Kab/Kota: Kota Tanjungpinang\nKecamatan: Tanjung Pinang Timur\nKelurahan: Melayu Kota Piring\nAlamat: Putri Ledang V"
  },
  {
    "latitude": 0.920842,
    "longitude": 104.492294,
    "title": "BANK SAMPAH WONOSARI ASRI",
    "description": "Kab/Kota: Kota Tanjungpinang\nKecamatan: Tanjung Pinang Timur\nKelurahan: Melayu Kota Piring\nAlamat: PUSKESMAS KM.7 RT.03/RW.4"
  },
  {
    "latitude": 0.913521,
    "longitude": 104.486397,
    "title": "BANK SAMPAH KEMBAR MANDIRI ",
    "description": "Kab/Kota: Kota Tanjungpinang\nKecamatan: Tanjung Pinang Timur\nKelurahan: Melayu Kota Piring\nAlamat: KAMPUNG WONOSARI RT.002 RW.4"
  },
  {
    "latitude": 0.921449,
    "longitude": 104.490852,
    "title": "Banyu Biru",
    "description": "Kab/Kota: Kota Tanjungpinang\nKecamatan: Tanjung Pinang Timur\nKelurahan: Melayu Kota Piring\nAlamat: Jl. Sri Payung RW. VI"
  },
  {
    "latitude": 0.913327,
    "longitude": 104.489403,
    "title": "BANK SAMPAH BANJAR BERSERI",
    "description": "Kab/Kota: Kota Tanjungpinang\nKecamatan: Tanjung Pinang Timur\nKelurahan: Air Raja\nAlamat: KAMPUNG BANJAR RW.6 BATU 15"
  },
  {
    "latitude": 0.915575,
    "longitude": 104.494255,
    "title": "Bank Sampah Pemuda Pancasila",
    "description": "Kab/Kota: Kota Tanjungpinang\nKecamatan: Tanjung Pinang Timur\nKelurahan: Air Raja\nAlamat: Jl. WR. Supratman Batu 8"
  },
  {
    "latitude": 0.907848,
    "longitude": 104.491867,
    "title": "Bank Sampah Unit Bank Sampah Mekar Jaya",
    "description": "Kab/Kota: Kota Tanjungpinang\nKecamatan: Tanjung Pinang Timur\nKelurahan: Batu IX\nAlamat: Km. 8 Atas"
  },
  {
    "latitude": 0.919219,
    "longitude": 104.519279,
    "title": "Bank Sampah STAI MIFTAHUL ULUM",
    "description": "Kab/Kota: Kota Tanjungpinang\nKecamatan: Tanjung Pinang Timur\nKelurahan: Batu IX\nAlamat: Jl. Kepondang, Kp Sidomulyo"
  },
  {
    "latitude": 0.910175,
    "longitude": 104.510925,
    "title": "Bank Sampah Pinang Merah Indah",
    "description": "Kab/Kota: Kota Tanjungpinang\nKecamatan: Tanjung Pinang Timur\nKelurahan: Batu IX\nAlamat: Perum Pinang Merah Jl. Pinang Merah"
  },
  {
    "latitude": 0.907587,
    "longitude": 104.522652,
    "title": "BANK SAMPAH BERKAH BANGUN BERSAMA",
    "description": "Kab/Kota: Kota Tanjungpinang\nKecamatan: Tanjung Pinang Timur\nKelurahan: Batu IX\nAlamat: KAMPUNG BANGUN SARI RT.002/RW.10"
  },
  {
    "latitude": 0.944073,
    "longitude": 104.514999,
    "title": "Bank Sampah Unit Berlian Bumi Air Raja",
    "description": "Kab/Kota: Kota Tanjungpinang\nKecamatan: Tanjung Pinang Timur\nKelurahan: Pinang Kencana\nAlamat: KM 14 Perum Air Raja"
  },
  {
    "latitude": 0.930106,
    "longitude": 104.521355,
    "title": "Bank Sampah Unit Mitra Bahagia Sejahtera",
    "description": "Kab/Kota: Kota Tanjungpinang\nKecamatan: Tanjung Pinang Timur\nKelurahan: Pinang Kencana\nAlamat: Jln. Ganet KM.11 Ruko Bintan Permata RT.05 RW.04"
  },
  {
    "latitude": 0.921554,
    "longitude": 104.521744,
    "title": "Bank Sampah Unit Bank Sampah Semesta",
    "description": "Kab/Kota: Kota Tanjungpinang\nKecamatan: Tanjung Pinang Timur\nKelurahan: Pinang Kencana\nAlamat: Jl. Ganet Perum Bintan Permai Blok E.4 No.9"
  },
  {
    "latitude": 0.928403,
    "longitude": 104.518738,
    "title": "Bank Sampah MANDIRI",
    "description": "Kab/Kota: Kota Tanjungpinang\nKecamatan: Tanjung Pinang Timur\nKelurahan: Pinang Kencana\nAlamat: Jl. Angsana TPA Ganet"
  },
  {
    "latitude": 0.934573,
    "longitude": 104.519073,
    "title": "Bank Sampah Hangtuah",
    "description": "Kab/Kota: Kota Tanjungpinang\nKecamatan: Tanjung Pinang Timur\nKelurahan: Pinang Kencana\nAlamat: Perum Griya Hangtuah"
  },
  {
    "latitude": 0.919437,
    "longitude": 104.515984,
    "title": "Bank Sampah KIKEN",
    "description": "Kab/Kota: Kota Tanjungpinang\nKecamatan: Tanjung Pinang Timur\nKelurahan: Pinang Kencana\nAlamat: PERUM KIJANG KENCANA 1-4"
  },
  {
    "latitude": 0.917459,
    "longitude": 104.516808,
    "title": "BANK SAMPAH LESTARI",
    "description": "Kab/Kota: Kota Tanjungpinang\nKecamatan: Tanjung Pinang Timur\nKelurahan: Pinang Kencana\nAlamat: PERUM ALAM TIRTA"
  },

  {
    "latitude": 0.919025,
    "longitude": 104.516823,
    "title": "BANK SAMPAH RESIK BECIK",
    "description": "Kab/Kota: Kota Tanjungpinang\nKecamatan: Tanjung Pinang Timur\nKelurahan: Pinang Kencana\nAlamat: KAMPUNG KARANGREJO RT.01 RW.08"
  },
  {
    "latitude": 0.975179,
    "longitude": 104.41938,
    "title": "BANK SAMPAH SEBAOK INDAH",
    "description": "Kab/Kota: Kota Tanjungpinang\nKecamatan: Tanjung Pinang Kota\nKelurahan: Senggarang\nAlamat: JL. RAYA TANJUNG SEBAOK RT.001/RW.006"
  },
  {
    "latitude": 0.944383,
    "longitude": 104.446632,
    "title": "Bank Sampah Kelurahan Senggarang",
    "description": "Kab/Kota: Kota Tanjungpinang\nKecamatan: Tanjung Pinang Kota\nKelurahan: Senggarang\nAlamat: Jalan Daeng Kamboja Nomor 1"
  },
  {
    "latitude": 0.946448,
    "longitude": 104.46254,
    "title": "kampung Mandiri",
    "description": "Kab/Kota: Kota Tanjungpinang\nKecamatan: Tanjung Pinang Kota\nKelurahan: Senggarang\nAlamat: Jl. Seitimun RW. V Kelurahan Air Raja"
  },
  {
    "latitude": 0.928204,
    "longitude": 104.472488,
    "title": "Bank Sampah Punye Kite",
    "description": "Kab/Kota: Kota Tanjungpinang\nKecamatan: Tanjung Pinang Kota\nKelurahan: Penyengat\nAlamat: Kampung Bulang"
  },
  {
    "latitude": 0.928377,
    "longitude": 104.421333,
    "title": "Bank Sampah Kelurahan Penyengat",
    "description": "Kab/Kota: Kota Tanjungpinang\nKecamatan: Tanjung Pinang Kota\nKelurahan: Penyengat\nAlamat: Jalan Manunggal II Nomor 1 RT 02 RW 02"
  },
  {
    "latitude": 0.941288,
    "longitude": 104.458008,
    "title": "Bank Sampah Kelurahan Kampung Bugis",
    "description": "Kab/Kota: Kota Tanjungpinang\nKecamatan: Tanjung Pinang Kota\nKelurahan: Kampung Bugis\nAlamat: Jalan Abdulrahman No.34/A RT 004 RW 02"
  },
  {
    "latitude": 0.915733,
    "longitude": 104.52095,
    "title": "BANK SAMPAH SEMOGA BERKAH",
    "description": "Kab/Kota: Kota Tanjungpinang\nKecamatan: Tanjung Pinang Kota\nKelurahan: Kampung Bugis\nAlamat: JALAN SEI LADI"
  },
  {
    "latitude": 0.941997,
    "longitude": 104.457993,
    "title": "Bank Sampah Kecamatan Tanjungpinang Kota",
    "description": "Kab/Kota: Kota Tanjungpinang\nKecamatan: Tanjung Pinang Kota\nKelurahan: Kampung Bugis\nAlamat: Jalan Abdul Rahim Kantor Kecamatan Tpi Kota"
  },
  {
    "latitude": 0.942118,
    "longitude": 104.480637,
    "title": "Bank Sampah Tuah Pesisir",
    "description": "Kab/Kota: Kota Tanjungpinang\nKecamatan: Tanjung Pinang Kota\nKelurahan: Kampung Bugis\nAlamat: Jl.Abdurrahman RT.1 RW.1"
  },
  {
    "latitude": 0.860716,
    "longitude": 104.479401,
    "title": "BANK SAMPAH ANAK DARE",
    "description": "Kab/Kota: Kota Tanjungpinang\nKecamatan: Bukit Bestari\nKelurahan: Dompak\nAlamat: KAMPUNG DOMPAK LAMA"
  },
  {
    "latitude": 0.886294,
    "longitude": 104.494514,
    "title": "BANK SAMPAH SEI JARI",
    "description": "Kab/Kota: Kota Tanjungpinang\nKecamatan: Bukit Bestari\nKelurahan: Dompak\nAlamat: JL. BATU NAGA GG. ABDUL WAHAB 1 RT.003/RW.003"
  },
  {
    "latitude": 0.87444,
    "longitude": 104.443001,
    "title": "BANK SAMPAH SMART KEPRI",
    "description": "Kab/Kota: Kota Tanjungpinang\nKecamatan: Bukit Bestari\nKelurahan: Dompak\nAlamat: KOMPLEK PERKANTORAN PEMPROV KEPRI, PULAU DOMPAK"
  },
  {
    "latitude": 0.881539,
    "longitude": 104.500771,
    "title": "BANK SAMPAH SEISUDIP MANDIRI",
    "description": "Kab/Kota: Kota Tanjungpinang\nKecamatan: Bukit Bestari\nKelurahan: Dompak\nAlamat: JALAN PANGLIMA DOMPAK KAMPUNG SEI SUDIP RT 02 RW 03"
  },
  {
    "latitude": 0.874214,
    "longitude": 104.471878,
    "title": "Bank sampah Bintang Siambang",
    "description": "Kab/Kota: Kota Tanjungpinang\nKecamatan: Bukit Bestari\nKelurahan: Dompak\nAlamat: RW.001 Dompak"
  },
  {
    "latitude": 0.898944,
    "longitude": 104.462975,
    "title": "Bank Sampah Unit Bina Sejahtera",
    "description": "Kab/Kota: Kota Tanjungpinang\nKecamatan: Bukit Bestari\nKelurahan: Tanjung Ayun Sakti\nAlamat: Jl. H, Ungar"
  },
  {
    "latitude": 0.906283,
    "longitude": 104.454681,
    "title": "Bank Sampah Asoka",
    "description": "Kab/Kota: Kota Tanjungpinang\nKecamatan: Bukit Bestari\nKelurahan: Tanjung Ayun Sakti\nAlamat: Jl. Lembah Purnama"
  },
  {
    "latitude": 0.907917,
    "longitude": 104.466782,
    "title": "Bank Sampah Unit Cermai",
    "description": "Kab/Kota: Kota Tanjungpinang\nKecamatan: Bukit Bestari\nKelurahan: Sei Jang\nAlamat: Jl. Seijang gg seijang RTI/RWIV"
  },
  {
    "latitude": 0.901371,
    "longitude": 104.467888,
    "title": "Bank Sampah Ceria",
    "description": "Kab/Kota: Kota Tanjungpinang\nKecamatan: Bukit Bestari\nKelurahan: Sei Jang\nAlamat: Perum Seijang Jl. Jemaja Rt.03 RW.6"
  },
  {
    "latitude": 0.90763,
    "longitude": 104.467522,
    "title": "BANK SAMPAH KAMPUNG KOLAM NIRWANA",
    "description": "Kab/Kota: Kota Tanjungpinang\nKecamatan: Bukit Bestari\nKelurahan: Sei Jang\nAlamat: KAMPUNG KOLAM SEIJANG RT.01 / RW. 11"
  },

  {
    "latitude": 0.906832,
    "longitude": 104.473305,
    "title": "HILIR DAS",
    "description": "Kab/Kota: Kota Tanjungpinang Kecamatan: Bukit Bestari Kelurahan: Sei Jang Alamat: JL. Raja Haji Fisabilillah, gg Pulau Pandan RW.2"
  },
  {
    "latitude": 0.897982,
    "longitude": 104.478218,
    "title": "RAWA DAS",
    "description": "Kab/Kota: Kota Tanjungpinang Kecamatan: Bukit Bestari Kelurahan: Sei Jang Alamat: Jl. Salam 1 Gg. Salam 1 RT.02/RW.11"
  },
  {
    "latitude": 0.910194,
    "longitude": 104.465416,
    "title": "LESTARI",
    "description": "Kab/Kota: Kota Tanjungpinang Kecamatan: Bukit Bestari Kelurahan: Sei Jang Alamat: Jl. Batu Kucing Gg. Kelinci No.26 RT.001/RW.003"
  },
  {
    "latitude": 0.90309,
    "longitude": 104.483101,
    "title": "Bank Sampah Menur Indah",
    "description": "Kab/Kota: Kota Tanjungpinang Kecamatan: Bukit Bestari Kelurahan: Sei Jang Alamat: Jl. Menur Gg. Menur 10"
  },
  {
    "latitude": 0.914329,
    "longitude": 104.488564,
    "title": "Bank Sampah Tanggul Das",
    "description": "Kab/Kota: Kota Tanjungpinang Kecamatan: Bukit Bestari Kelurahan: Sei Jang Alamat: Jl. Durian, RT.03 RW.I"
  },
  {
    "latitude": 0.905379,
    "longitude": 104.502998,
    "title": "Bank Sampah Tanjung Harapan",
    "description": "Kab/Kota: Kota Tanjungpinang Kecamatan: Bukit Bestari Kelurahan: Sei Jang Alamat: Jl. Pejantan RT.1 RW.7"
  },
  {
    "latitude": 0.899812,
    "longitude": 104.461441,
    "title": "Bank Sampah Unit Tanjung Unggat Berseri",
    "description": "Kab/Kota: Kota Tanjungpinang Kecamatan: Bukit Bestari Kelurahan: Tanjung Unggat Alamat: St Machmud"
  },
  {
    "latitude": 0.926703,
    "longitude": 104.452728,
    "title": "BANK SAMPAH GUDANG MINYAK",
    "description": "Kab/Kota: Kota Tanjungpinang Kecamatan: Bukit Bestari Kelurahan: Tanjung Unggat Alamat: JALAN GUDANG MINYAK"
  },
  {
    "latitude": 0.924992,
    "longitude": 104.463158,
    "title": "Bank Sampah KOMBES GO",
    "description": "Kab/Kota: Kota Tanjungpinang Kecamatan: Bukit Bestari Kelurahan: Tanjung Unggat Alamat: Jl. MT. Hariyono gg bintangor no.69"
  },
  {
    "latitude": 0.926818,
    "longitude": 104.461807,
    "title": "Bank Sampah Induk Berseri",
    "description": "Kab/Kota: Kota Tanjungpinang Kecamatan: Bukit Bestari Kelurahan: Tanjung Unggat Alamat: Jl. Sultan Machmud Gg. Swadaya No. 19 RT2 RW3"
  },
  {
    "latitude": 0.924535,
    "longitude": 104.462204,
    "title": "Bank Sampah Kenanga",
    "description": "Kab/Kota: Kota Tanjungpinang Kecamatan: Bukit Bestari Kelurahan: Tanjung Unggat Alamat: Jl. Sultan Machmud  RT6 RW2"
  },
  {
    "latitude": 0.921548,
    "longitude": 104.455559,
    "title": "Bank Sampah Kenanga",
    "description": "Kab/Kota: Kota Tanjungpinang Kecamatan: Bukit Bestari Kelurahan: Tanjung Unggat Alamat: Jl. Brigjen Katamso Gg. Kenanga III RT.04 RW.02"
  }
]
